{
  "type": "FeatureCollection",
  "features": [
    {
      "type": "Feature",
      "geometry": {
        "type": "Point",
        "coordinates": [-74.947804, 39.778421]
      },
      "properties": {
        "cartodb_id": 131,
        "iata": "19N",
        "title": "Camden",
        "city": "Berlin",
        "state": "NJ",
        "country": "USA",
        "latitude": 39.77842056,
        "longitude": -74.94780389
      }
    },
    {
      "type": "Feature",
      "geometry": {
        "type": "Point",
        "coordinates": [-89.234505, 31.953765]
      },
      "properties": {
        "cartodb_id": 1,
        "iata": "00M",
        "title": "Thigpen",
        "city": "Bay Springs",
        "state": "MS",
        "country": "USA",
        "latitude": 31.95376472,
        "longitude": -89.23450472
      }
    },
    {
      "type": "Feature",
      "geometry": {
        "type": "Point",
        "coordinates": [-95.017928, 30.685861]
      },
      "properties": {
        "cartodb_id": 2,
        "iata": "00R",
        "title": "Livingston Municipal",
        "city": "Livingston",
        "state": "TX",
        "country": "USA",
        "latitude": 30.68586111,
        "longitude": -95.01792778
      }
    },
    {
      "type": "Feature",
      "geometry": {
        "type": "Point",
        "coordinates": [-104.569893, 38.945749]
      },
      "properties": {
        "cartodb_id": 3,
        "iata": "00V",
        "title": "Meadow Lake",
        "city": "Colorado Springs",
        "state": "CO",
        "country": "USA",
        "latitude": 38.94574889,
        "longitude": -104.5698933
      }
    },
    {
      "type": "Feature",
      "geometry": {
        "type": "Point",
        "coordinates": [-78.052081, 42.741347]
      },
      "properties": {
        "cartodb_id": 4,
        "iata": "01G",
        "title": "Perry-Warsaw",
        "city": "Perry",
        "state": "NY",
        "country": "USA",
        "latitude": 42.74134667,
        "longitude": -78.05208056
      }
    },
    {
      "type": "Feature",
      "geometry": {
        "type": "Point",
        "coordinates": [-81.905944, 30.688012]
      },
      "properties": {
        "cartodb_id": 5,
        "iata": "01J",
        "title": "Hilliard Airpark",
        "city": "Hilliard",
        "state": "FL",
        "country": "USA",
        "latitude": 30.6880125,
        "longitude": -81.90594389
      }
    },
    {
      "type": "Feature",
      "geometry": {
        "type": "Point",
        "coordinates": [-88.201111, 34.491667]
      },
      "properties": {
        "cartodb_id": 6,
        "iata": "01M",
        "title": "Tishomingo County",
        "city": "Belmont",
        "state": "MS",
        "country": "USA",
        "latitude": 34.49166667,
        "longitude": -88.20111111
      }
    },
    {
      "type": "Feature",
      "geometry": {
        "type": "Point",
        "coordinates": [-86.611453, 32.850487]
      },
      "properties": {
        "cartodb_id": 7,
        "iata": "02A",
        "title": "Gragg-Wade",
        "city": "Clanton",
        "state": "AL",
        "country": "USA",
        "latitude": 32.85048667,
        "longitude": -86.61145333
      }
    },
    {
      "type": "Feature",
      "geometry": {
        "type": "Point",
        "coordinates": [-88.177869, 43.08751]
      },
      "properties": {
        "cartodb_id": 8,
        "iata": "02C",
        "title": "Capitol",
        "city": "Brookfield",
        "state": "WI",
        "country": "USA",
        "latitude": 43.08751,
        "longitude": -88.17786917
      }
    },
    {
      "type": "Feature",
      "geometry": {
        "type": "Point",
        "coordinates": [-80.641406, 40.673313]
      },
      "properties": {
        "cartodb_id": 9,
        "iata": "02G",
        "title": "Columbiana County",
        "city": "East Liverpool",
        "state": "OH",
        "country": "USA",
        "latitude": 40.67331278,
        "longitude": -80.64140639
      }
    },
    {
      "type": "Feature",
      "geometry": {
        "type": "Point",
        "coordinates": [-92.226961, 40.447259]
      },
      "properties": {
        "cartodb_id": 10,
        "iata": "03D",
        "title": "Memphis Memorial",
        "city": "Memphis",
        "state": "MO",
        "country": "USA",
        "latitude": 40.44725889,
        "longitude": -92.22696056
      }
    },
    {
      "type": "Feature",
      "geometry": {
        "type": "Point",
        "coordinates": [-89.342852, 33.930112]
      },
      "properties": {
        "cartodb_id": 11,
        "iata": "04M",
        "title": "Calhoun County",
        "city": "Pittsboro",
        "state": "MS",
        "country": "USA",
        "latitude": 33.93011222,
        "longitude": -89.34285194
      }
    },
    {
      "type": "Feature",
      "geometry": {
        "type": "Point",
        "coordinates": [-96.350899, 46.883849]
      },
      "properties": {
        "cartodb_id": 12,
        "iata": "04Y",
        "title": "Hawley Municipal",
        "city": "Hawley",
        "state": "MN",
        "country": "USA",
        "latitude": 46.88384889,
        "longitude": -96.35089861
      }
    },
    {
      "type": "Feature",
      "geometry": {
        "type": "Point",
        "coordinates": [-87.401093, 41.519619]
      },
      "properties": {
        "cartodb_id": 13,
        "iata": "05C",
        "title": "Griffith-Merrillville",
        "city": "Griffith",
        "state": "IN",
        "country": "USA",
        "latitude": 41.51961917,
        "longitude": -87.40109333
      }
    },
    {
      "type": "Feature",
      "geometry": {
        "type": "Point",
        "coordinates": [-97.796968, 31.421276]
      },
      "properties": {
        "cartodb_id": 14,
        "iata": "05F",
        "title": "Gatesville - City/County",
        "city": "Gatesville",
        "state": "TX",
        "country": "USA",
        "latitude": 31.42127556,
        "longitude": -97.79696778
      }
    },
    {
      "type": "Feature",
      "geometry": {
        "type": "Point",
        "coordinates": [-116.00506, 39.604167]
      },
      "properties": {
        "cartodb_id": 15,
        "iata": "05U",
        "title": "Eureka",
        "city": "Eureka",
        "state": "NV",
        "country": "USA",
        "latitude": 39.60416667,
        "longitude": -116.0050597
      }
    },
    {
      "type": "Feature",
      "geometry": {
        "type": "Point",
        "coordinates": [-85.680036, 32.460472]
      },
      "properties": {
        "cartodb_id": 16,
        "iata": "06A",
        "title": "Moton  Municipal",
        "city": "Tuskegee",
        "state": "AL",
        "country": "USA",
        "latitude": 32.46047167,
        "longitude": -85.68003611
      }
    },
    {
      "type": "Feature",
      "geometry": {
        "type": "Point",
        "coordinates": [-88.101243, 41.989341]
      },
      "properties": {
        "cartodb_id": 17,
        "iata": "06C",
        "title": "Schaumburg",
        "city": "Chicago/Schaumburg",
        "state": "IL",
        "country": "USA",
        "latitude": 41.98934083,
        "longitude": -88.10124278
      }
    },
    {
      "type": "Feature",
      "geometry": {
        "type": "Point",
        "coordinates": [-99.620877, 48.884341]
      },
      "properties": {
        "cartodb_id": 18,
        "iata": "06D",
        "title": "Rolla Municipal",
        "city": "Rolla",
        "state": "ND",
        "country": "USA",
        "latitude": 48.88434111,
        "longitude": -99.62087694
      }
    },
    {
      "type": "Feature",
      "geometry": {
        "type": "Point",
        "coordinates": [-89.312569, 33.534566]
      },
      "properties": {
        "cartodb_id": 19,
        "iata": "06M",
        "title": "Eupora Municipal",
        "city": "Eupora",
        "state": "MS",
        "country": "USA",
        "latitude": 33.53456583,
        "longitude": -89.31256917
      }
    },
    {
      "type": "Feature",
      "geometry": {
        "type": "Point",
        "coordinates": [-74.391917, 41.431566]
      },
      "properties": {
        "cartodb_id": 20,
        "iata": "06N",
        "title": "Randall",
        "city": "Middletown",
        "state": "NY",
        "country": "USA",
        "latitude": 41.43156583,
        "longitude": -74.39191722
      }
    },
    {
      "type": "Feature",
      "geometry": {
        "type": "Point",
        "coordinates": [-114.658091, 41.976022]
      },
      "properties": {
        "cartodb_id": 21,
        "iata": "06U",
        "title": "Jackpot/Hayden",
        "city": "Jackpot",
        "state": "NV",
        "country": "USA",
        "latitude": 41.97602222,
        "longitude": -114.6580911
      }
    },
    {
      "type": "Feature",
      "geometry": {
        "type": "Point",
        "coordinates": [-85.064333, 41.307167]
      },
      "properties": {
        "cartodb_id": 22,
        "iata": "07C",
        "title": "Dekalb County",
        "city": "Auburn",
        "state": "IN",
        "country": "USA",
        "latitude": 41.30716667,
        "longitude": -85.06433333
      }
    },
    {
      "type": "Feature",
      "geometry": {
        "type": "Point",
        "coordinates": [-94.971746, 32.528839]
      },
      "properties": {
        "cartodb_id": 23,
        "iata": "07F",
        "title": "Gladewater Municipal",
        "city": "Gladewater",
        "state": "TX",
        "country": "USA",
        "latitude": 32.52883861,
        "longitude": -94.97174556
      }
    },
    {
      "type": "Feature",
      "geometry": {
        "type": "Point",
        "coordinates": [-84.811431, 42.574509]
      },
      "properties": {
        "cartodb_id": 24,
        "iata": "07G",
        "title": "Fitch H Beach",
        "city": "Charlotte",
        "state": "MI",
        "country": "USA",
        "latitude": 42.57450861,
        "longitude": -84.81143139
      }
    },
    {
      "type": "Feature",
      "geometry": {
        "type": "Point",
        "coordinates": [-98.050336, 41.116681]
      },
      "properties": {
        "cartodb_id": 25,
        "iata": "07K",
        "title": "Central City Municipal",
        "city": "Central City",
        "state": "NE",
        "country": "USA",
        "latitude": 41.11668056,
        "longitude": -98.05033639
      }
    },
    {
      "type": "Feature",
      "geometry": {
        "type": "Point",
        "coordinates": [-86.328221, 32.529439]
      },
      "properties": {
        "cartodb_id": 26,
        "iata": "08A",
        "title": "Wetumpka Municipal",
        "city": "Wetumpka",
        "state": "AL",
        "country": "USA",
        "latitude": 32.52943944,
        "longitude": -86.32822139
      }
    },
    {
      "type": "Feature",
      "geometry": {
        "type": "Point",
        "coordinates": [-102.406351, 48.300799]
      },
      "properties": {
        "cartodb_id": 27,
        "iata": "08D",
        "title": "Stanley Municipal",
        "city": "Stanley",
        "state": "ND",
        "country": "USA",
        "latitude": 48.30079861,
        "longitude": -102.4063514
      }
    },
    {
      "type": "Feature",
      "geometry": {
        "type": "Point",
        "coordinates": [-98.079787, 40.651385]
      },
      "properties": {
        "cartodb_id": 28,
        "iata": "08K",
        "title": "Harvard State",
        "city": "Harvard",
        "state": "NE",
        "country": "USA",
        "latitude": 40.65138528,
        "longitude": -98.07978667
      }
    },
    {
      "type": "Feature",
      "geometry": {
        "type": "Point",
        "coordinates": [-89.530071, 32.761246]
      },
      "properties": {
        "cartodb_id": 29,
        "iata": "08M",
        "title": "Carthage-Leake County",
        "city": "Carthage",
        "state": "MS",
        "country": "USA",
        "latitude": 32.76124611,
        "longitude": -89.53007139
      }
    },
    {
      "type": "Feature",
      "geometry": {
        "type": "Point",
        "coordinates": [-88.127462, 32.119313]
      },
      "properties": {
        "cartodb_id": 30,
        "iata": "09A",
        "title": "Butler-Choctaw County",
        "city": "Butler",
        "state": "AL",
        "country": "USA",
        "latitude": 32.11931306,
        "longitude": -88.1274625
      }
    },
    {
      "type": "Feature",
      "geometry": {
        "type": "Point",
        "coordinates": [-81.427778, 31.074472]
      },
      "properties": {
        "cartodb_id": 31,
        "iata": "09J",
        "title": "Jekyll Island",
        "city": "Jekyll Island",
        "state": "GA",
        "country": "USA",
        "latitude": 31.07447222,
        "longitude": -81.42777778
      }
    },
    {
      "type": "Feature",
      "geometry": {
        "type": "Point",
        "coordinates": [-99.340381, 41.636951]
      },
      "properties": {
        "cartodb_id": 32,
        "iata": "09K",
        "title": "Sargent Municipal",
        "city": "Sargent",
        "state": "NE",
        "country": "USA",
        "latitude": 41.63695083,
        "longitude": -99.34038139
      }
    },
    {
      "type": "Feature",
      "geometry": {
        "type": "Point",
        "coordinates": [-90.078145, 33.991502]
      },
      "properties": {
        "cartodb_id": 33,
        "iata": "09M",
        "title": "Charleston Municipal",
        "city": "Charleston",
        "state": "MS",
        "country": "USA",
        "latitude": 33.99150222,
        "longitude": -90.078145
      }
    },
    {
      "type": "Feature",
      "geometry": {
        "type": "Point",
        "coordinates": [-77.007476, 38.868723]
      },
      "properties": {
        "cartodb_id": 34,
        "iata": "09W",
        "title": "South Capitol Street",
        "city": "Washington",
        "state": "DC",
        "country": "USA",
        "latitude": 38.86872333,
        "longitude": -77.00747583
      }
    },
    {
      "type": "Feature",
      "geometry": {
        "type": "Point",
        "coordinates": [-85.809318, 35.985312]
      },
      "properties": {
        "cartodb_id": 35,
        "iata": "0A3",
        "title": "Smithville Municipal",
        "city": "Smithville",
        "state": "TN",
        "country": "USA",
        "latitude": 35.98531194,
        "longitude": -85.80931806
      }
    },
    {
      "type": "Feature",
      "geometry": {
        "type": "Point",
        "coordinates": [-87.088883, 32.936791]
      },
      "properties": {
        "cartodb_id": 36,
        "iata": "0A8",
        "title": "Bibb County",
        "city": "Centreville",
        "state": "AL",
        "country": "USA",
        "latitude": 32.93679056,
        "longitude": -87.08888306
      }
    },
    {
      "type": "Feature",
      "geometry": {
        "type": "Point",
        "coordinates": [-82.173741, 36.370943]
      },
      "properties": {
        "cartodb_id": 37,
        "iata": "0A9",
        "title": "Elizabethton Municipal",
        "city": "Elizabethton",
        "state": "TN",
        "country": "USA",
        "latitude": 36.37094306,
        "longitude": -82.17374111
      }
    },
    {
      "type": "Feature",
      "geometry": {
        "type": "Point",
        "coordinates": [-162.892936, 61.933964]
      },
      "properties": {
        "cartodb_id": 38,
        "iata": "0AK",
        "title": "Pilot Station",
        "city": "Pilot Station",
        "state": "AK",
        "country": "USA",
        "latitude": 61.93396417,
        "longitude": -162.8929358
      }
    },
    {
      "type": "Feature",
      "geometry": {
        "type": "Point",
        "coordinates": [-70.807848, 44.425064]
      },
      "properties": {
        "cartodb_id": 39,
        "iata": "0B1",
        "title": "Col. Dyke",
        "city": "Bethel",
        "state": "ME",
        "country": "USA",
        "latitude": 44.42506444,
        "longitude": -70.80784778
      }
    },
    {
      "type": "Feature",
      "geometry": {
        "type": "Point",
        "coordinates": [-97.252639, 42.603556]
      },
      "properties": {
        "cartodb_id": 40,
        "iata": "0B4",
        "title": "Hartington Municipal",
        "city": "Hartington",
        "state": "NE",
        "country": "USA",
        "latitude": 42.60355556,
        "longitude": -97.25263889
      }
    },
    {
      "type": "Feature",
      "geometry": {
        "type": "Point",
        "coordinates": [-72.522755, 42.591364]
      },
      "properties": {
        "cartodb_id": 41,
        "iata": "0B5",
        "title": "Turners Falls",
        "city": "Montague",
        "state": "MA",
        "country": "USA",
        "latitude": 42.59136361,
        "longitude": -72.52275472
      }
    },
    {
      "type": "Feature",
      "geometry": {
        "type": "Point",
        "coordinates": [-72.827058, 44.116727]
      },
      "properties": {
        "cartodb_id": 42,
        "iata": "0B7",
        "title": "Warren-Sugar Bush",
        "city": "Warren",
        "state": "VT",
        "country": "USA",
        "latitude": 44.11672722,
        "longitude": -72.82705806
      }
    },
    {
      "type": "Feature",
      "geometry": {
        "type": "Point",
        "coordinates": [-72.031611, 41.251308]
      },
      "properties": {
        "cartodb_id": 43,
        "iata": "0B8",
        "title": "Elizabeth",
        "city": "Fishers Island",
        "state": "NY",
        "country": "USA",
        "latitude": 41.25130806,
        "longitude": -72.03161139
      }
    },
    {
      "type": "Feature",
      "geometry": {
        "type": "Point",
        "coordinates": [-88.633432, 42.404186]
      },
      "properties": {
        "cartodb_id": 44,
        "iata": "0C0",
        "title": "Dacy",
        "city": "Chicago/Harvard",
        "state": "IL",
        "country": "USA",
        "latitude": 42.40418556,
        "longitude": -88.63343222
      }
    },
    {
      "type": "Feature",
      "geometry": {
        "type": "Point",
        "coordinates": [-96.728926, 42.113887]
      },
      "properties": {
        "cartodb_id": 45,
        "iata": "0C4",
        "title": "Pender Municipal",
        "city": "Pender",
        "state": "NE",
        "country": "USA",
        "latitude": 42.11388722,
        "longitude": -96.72892556
      }
    },
    {
      "type": "Feature",
      "geometry": {
        "type": "Point",
        "coordinates": [-86.256139, 42.350833]
      },
      "properties": {
        "cartodb_id": 46,
        "iata": "0D1",
        "title": "South Haven Municipal",
        "city": "South Haven",
        "state": "MI",
        "country": "USA",
        "latitude": 42.35083333,
        "longitude": -86.25613889
      }
    },
    {
      "type": "Feature",
      "geometry": {
        "type": "Point",
        "coordinates": [-99.9535, 44.987306]
      },
      "properties": {
        "cartodb_id": 47,
        "iata": "0D8",
        "title": "Gettysburg Municipal",
        "city": "Gettysburg",
        "state": "SD",
        "country": "USA",
        "latitude": 44.98730556,
        "longitude": -99.9535
      }
    },
    {
      "type": "Feature",
      "geometry": {
        "type": "Point",
        "coordinates": [-106.009466, 34.985606]
      },
      "properties": {
        "cartodb_id": 48,
        "iata": "0E0",
        "title": "Moriarty",
        "city": "Moriarty",
        "state": "NM",
        "country": "USA",
        "latitude": 34.98560639,
        "longitude": -106.0094661
      }
    },
    {
      "type": "Feature",
      "geometry": {
        "type": "Point",
        "coordinates": [-108.201596, 35.717659]
      },
      "properties": {
        "cartodb_id": 49,
        "iata": "0E8",
        "title": "Crownpoint",
        "city": "Crownpoint",
        "state": "NM",
        "country": "USA",
        "latitude": 35.71765889,
        "longitude": -108.2015961
      }
    },
    {
      "type": "Feature",
      "geometry": {
        "type": "Point",
        "coordinates": [-97.77556, 33.601667]
      },
      "properties": {
        "cartodb_id": 50,
        "iata": "0F2",
        "title": "Bowie Municipal",
        "city": "Bowie",
        "state": "TX",
        "country": "USA",
        "latitude": 33.60166667,
        "longitude": -97.77556
      }
    },
    {
      "type": "Feature",
      "geometry": {
        "type": "Point",
        "coordinates": [-98.990643, 41.290287]
      },
      "properties": {
        "cartodb_id": 51,
        "iata": "0F4",
        "title": "Loup City Municipal",
        "city": "Loup City",
        "state": "NE",
        "country": "USA",
        "latitude": 41.29028694,
        "longitude": -98.99064278
      }
    },
    {
      "type": "Feature",
      "geometry": {
        "type": "Point",
        "coordinates": [-95.601651, 35.388988]
      },
      "properties": {
        "cartodb_id": 52,
        "iata": "0F7",
        "title": "Fountainhead Lodge Airpark",
        "city": "Eufaula",
        "state": "OK",
        "country": "USA",
        "latitude": 35.38898833,
        "longitude": -95.60165111
      }
    },
    {
      "type": "Feature",
      "geometry": {
        "type": "Point",
        "coordinates": [-96.15181, 36.17528]
      },
      "properties": {
        "cartodb_id": 53,
        "iata": "0F8",
        "title": "William R Pogue Municipal",
        "city": "Sand Springs",
        "state": "OK",
        "country": "USA",
        "latitude": 36.17528,
        "longitude": -96.15181028
      }
    },
    {
      "type": "Feature",
      "geometry": {
        "type": "Point",
        "coordinates": [-96.675557, 34.195928]
      },
      "properties": {
        "cartodb_id": 54,
        "iata": "0F9",
        "title": "Tishomingo Airpark",
        "city": "Tishomingo",
        "state": "OK",
        "country": "USA",
        "latitude": 34.19592833,
        "longitude": -96.67555694
      }
    },
    {
      "type": "Feature",
      "geometry": {
        "type": "Point",
        "coordinates": [-78.703346, 43.103184]
      },
      "properties": {
        "cartodb_id": 55,
        "iata": "0G0",
        "title": "North Buffalo Suburban",
        "city": "Lockport",
        "state": "NY",
        "country": "USA",
        "latitude": 43.10318389,
        "longitude": -78.70334583
      }
    },
    {
      "type": "Feature",
      "geometry": {
        "type": "Point",
        "coordinates": [-96.171397, 40.399444]
      },
      "properties": {
        "cartodb_id": 56,
        "iata": "0G3",
        "title": "Tecumseh Municipal",
        "city": "Tecumseh",
        "state": "NE",
        "country": "USA",
        "latitude": 40.39944417,
        "longitude": -96.17139694
      }
    },
    {
      "type": "Feature",
      "geometry": {
        "type": "Point",
        "coordinates": [-84.506556, 41.467361]
      },
      "properties": {
        "cartodb_id": 57,
        "iata": "0G6",
        "title": "Williams County",
        "city": "Bryan",
        "state": "OH",
        "country": "USA",
        "latitude": 41.46736111,
        "longitude": -84.50655556
      }
    },
    {
      "type": "Feature",
      "geometry": {
        "type": "Point",
        "coordinates": [-76.78162, 42.880623]
      },
      "properties": {
        "cartodb_id": 58,
        "iata": "0G7",
        "title": "Finger Lakes Regional",
        "city": "Seneca Falls",
        "state": "NY",
        "country": "USA",
        "latitude": 42.88062278,
        "longitude": -76.78162028
      }
    },
    {
      "type": "Feature",
      "geometry": {
        "type": "Point",
        "coordinates": [-99.892899, 39.004452]
      },
      "properties": {
        "cartodb_id": 59,
        "iata": "0H1",
        "title": "Trego Wakeeney",
        "city": "Wakeeney",
        "state": "KS",
        "country": "USA",
        "latitude": 39.0044525,
        "longitude": -99.89289917
      }
    },
    {
      "type": "Feature",
      "geometry": {
        "type": "Point",
        "coordinates": [-84.284101, 38.366742]
      },
      "properties": {
        "cartodb_id": 60,
        "iata": "0I8",
        "title": "Cynthiana-Harrison County",
        "city": "Cynthiana",
        "state": "KY",
        "country": "USA",
        "latitude": 38.36674167,
        "longitude": -84.28410056
      }
    },
    {
      "type": "Feature",
      "geometry": {
        "type": "Point",
        "coordinates": [-85.238822, 31.600168]
      },
      "properties": {
        "cartodb_id": 61,
        "iata": "0J0",
        "title": "Abbeville Municipal",
        "city": "Abbeville",
        "state": "AL",
        "country": "USA",
        "latitude": 31.60016778,
        "longitude": -85.23882222
      }
    },
    {
      "type": "Feature",
      "geometry": {
        "type": "Point",
        "coordinates": [-86.311561, 31.042474]
      },
      "properties": {
        "cartodb_id": 62,
        "iata": "0J4",
        "title": "Florala Municipal",
        "city": "Florala",
        "state": "AL",
        "country": "USA",
        "latitude": 31.04247361,
        "longitude": -86.31156111
      }
    },
    {
      "type": "Feature",
      "geometry": {
        "type": "Point",
        "coordinates": [-85.309656, 31.364895]
      },
      "properties": {
        "cartodb_id": 63,
        "iata": "0J6",
        "title": "Headland Municipal",
        "city": "Headland",
        "state": "AL",
        "country": "USA",
        "latitude": 31.364895,
        "longitude": -85.30965556
      }
    },
    {
      "type": "Feature",
      "geometry": {
        "type": "Point",
        "coordinates": [-94.245242, 42.736083]
      },
      "properties": {
        "cartodb_id": 64,
        "iata": "0K7",
        "title": "Humboldt Municipal",
        "city": "Humboldt",
        "state": "IA",
        "country": "USA",
        "latitude": 42.7360825,
        "longitude": -94.24524167
      }
    },
    {
      "type": "Feature",
      "geometry": {
        "type": "Point",
        "coordinates": [-117.238412, 37.717988]
      },
      "properties": {
        "cartodb_id": 65,
        "iata": "0L5",
        "title": "Goldfield",
        "city": "Goldfield",
        "state": "NV",
        "country": "USA",
        "latitude": 37.71798833,
        "longitude": -117.2384119
      }
    },
    {
      "type": "Feature",
      "geometry": {
        "type": "Point",
        "coordinates": [-115.329638, 35.768272]
      },
      "properties": {
        "cartodb_id": 66,
        "iata": "0L7",
        "title": "Jean",
        "city": "Jean",
        "state": "NV",
        "country": "USA",
        "latitude": 35.76827222,
        "longitude": -115.3296378
      }
    },
    {
      "type": "Feature",
      "geometry": {
        "type": "Point",
        "coordinates": [-114.463867, 36.31109]
      },
      "properties": {
        "cartodb_id": 67,
        "iata": "0L9",
        "title": "Echo Bay",
        "city": "Overton",
        "state": "NV",
        "country": "USA",
        "latitude": 36.31108972,
        "longitude": -114.4638672
      }
    },
    {
      "type": "Feature",
      "geometry": {
        "type": "Point",
        "coordinates": [-91.534291, 33.884547]
      },
      "properties": {
        "cartodb_id": 68,
        "iata": "0M0",
        "title": "Dumas Municipal",
        "city": "Dumas",
        "state": "AR",
        "country": "USA",
        "latitude": 33.8845475,
        "longitude": -91.53429111
      }
    },
    {
      "type": "Feature",
      "geometry": {
        "type": "Point",
        "coordinates": [-88.127995, 35.63778]
      },
      "properties": {
        "cartodb_id": 69,
        "iata": "0M1",
        "title": "Scott",
        "city": "Parsons",
        "state": "TN",
        "country": "USA",
        "latitude": 35.63778,
        "longitude": -88.127995
      }
    },
    {
      "type": "Feature",
      "geometry": {
        "type": "Point",
        "coordinates": [-88.123288, 36.011227]
      },
      "properties": {
        "cartodb_id": 70,
        "iata": "0M4",
        "title": "Benton County",
        "city": "Camden",
        "state": "TN",
        "country": "USA",
        "latitude": 36.01122694,
        "longitude": -88.12328833
      }
    },
    {
      "type": "Feature",
      "geometry": {
        "type": "Point",
        "coordinates": [-87.738159, 36.1166]
      },
      "properties": {
        "cartodb_id": 71,
        "iata": "0M5",
        "title": "Humphreys County",
        "city": "Waverly",
        "state": "TN",
        "country": "USA",
        "latitude": 36.11659972,
        "longitude": -87.73815889
      }
    },
    {
      "type": "Feature",
      "geometry": {
        "type": "Point",
        "coordinates": [-89.900089, 34.366774]
      },
      "properties": {
        "cartodb_id": 72,
        "iata": "0M6",
        "title": "Panola County",
        "city": "Batesville",
        "state": "MS",
        "country": "USA",
        "latitude": 34.36677444,
        "longitude": -89.90008917
      }
    },
    {
      "type": "Feature",
      "geometry": {
        "type": "Point",
        "coordinates": [-91.187665, 32.825879]
      },
      "properties": {
        "cartodb_id": 73,
        "iata": "0M8",
        "title": "Byerley",
        "city": "Lake Providence",
        "state": "LA",
        "country": "USA",
        "latitude": 32.82587917,
        "longitude": -91.187665
      }
    },
    {
      "type": "Feature",
      "geometry": {
        "type": "Point",
        "coordinates": [-120.648173, 38.146116]
      },
      "properties": {
        "cartodb_id": 74,
        "iata": "0O3",
        "title": "Calaveras Co-Maury Rasmussen",
        "city": "San Andreas",
        "state": "CA",
        "country": "USA",
        "latitude": 38.14611639,
        "longitude": -120.6481733
      }
    },
    {
      "type": "Feature",
      "geometry": {
        "type": "Point",
        "coordinates": [-122.171378, 39.943768]
      },
      "properties": {
        "cartodb_id": 75,
        "iata": "0O4",
        "title": "Corning Municipal",
        "city": "Corning",
        "state": "CA",
        "country": "USA",
        "latitude": 39.94376806,
        "longitude": -122.1713781
      }
    },
    {
      "type": "Feature",
      "geometry": {
        "type": "Point",
        "coordinates": [-121.786491, 38.531462]
      },
      "properties": {
        "cartodb_id": 76,
        "iata": "0O5",
        "title": "University",
        "city": "Davis",
        "state": "CA",
        "country": "USA",
        "latitude": 38.53146222,
        "longitude": -121.7864906
      }
    },
    {
      "type": "Feature",
      "geometry": {
        "type": "Point",
        "coordinates": [-124.073364, 40.027643]
      },
      "properties": {
        "cartodb_id": 77,
        "iata": "0Q5",
        "title": "Shelter Cove",
        "city": "Shelter Cove",
        "state": "CA",
        "country": "USA",
        "latitude": 40.02764333,
        "longitude": -124.0733639
      }
    },
    {
      "type": "Feature",
      "geometry": {
        "type": "Point",
        "coordinates": [-121.817768, 40.522101]
      },
      "properties": {
        "cartodb_id": 78,
        "iata": "0Q6",
        "title": "Shingletown",
        "city": "Shingletown",
        "state": "CA",
        "country": "USA",
        "latitude": 40.52210111,
        "longitude": -121.8177683
      }
    },
    {
      "type": "Feature",
      "geometry": {
        "type": "Point",
        "coordinates": [-89.812829, 31.297008]
      },
      "properties": {
        "cartodb_id": 79,
        "iata": "0R0",
        "title": "Columbia-Marion County",
        "city": "Columbia",
        "state": "MS",
        "country": "USA",
        "latitude": 31.29700806,
        "longitude": -89.81282944
      }
    },
    {
      "type": "Feature",
      "geometry": {
        "type": "Point",
        "coordinates": [-87.44676, 31.016215]
      },
      "properties": {
        "cartodb_id": 80,
        "iata": "0R1",
        "title": "Atmore Municipal",
        "city": "Atmore",
        "state": "AL",
        "country": "USA",
        "latitude": 31.01621528,
        "longitude": -87.44675972
      }
    },
    {
      "type": "Feature",
      "geometry": {
        "type": "Point",
        "coordinates": [-92.084152, 29.975761]
      },
      "properties": {
        "cartodb_id": 81,
        "iata": "0R3",
        "title": "Abbeville Chris Crusta Memorial",
        "city": "Abbeville",
        "state": "LA",
        "country": "USA",
        "latitude": 29.97576083,
        "longitude": -92.08415167
      }
    },
    {
      "type": "Feature",
      "geometry": {
        "type": "Point",
        "coordinates": [-91.500119, 31.566833]
      },
      "properties": {
        "cartodb_id": 82,
        "iata": "0R4",
        "title": "Concordia Parish",
        "city": "Vidalia",
        "state": "LA",
        "country": "USA",
        "latitude": 31.56683278,
        "longitude": -91.50011889
      }
    },
    {
      "type": "Feature",
      "geometry": {
        "type": "Point",
        "coordinates": [-92.660261, 31.963662]
      },
      "properties": {
        "cartodb_id": 83,
        "iata": "0R5",
        "title": "David G Joyce",
        "city": "Winnfield",
        "state": "LA",
        "country": "USA",
        "latitude": 31.96366222,
        "longitude": -92.66026056
      }
    },
    {
      "type": "Feature",
      "geometry": {
        "type": "Point",
        "coordinates": [-93.307393, 31.990717]
      },
      "properties": {
        "cartodb_id": 84,
        "iata": "0R7",
        "title": "Red River",
        "city": "Coushatta",
        "state": "LA",
        "country": "USA",
        "latitude": 31.99071694,
        "longitude": -93.30739306
      }
    },
    {
      "type": "Feature",
      "geometry": {
        "type": "Point",
        "coordinates": [-119.411962, 48.958965]
      },
      "properties": {
        "cartodb_id": 85,
        "iata": "0S7",
        "title": "Dorothy Scott",
        "city": "Oroville",
        "state": "WA",
        "country": "USA",
        "latitude": 48.958965,
        "longitude": -119.4119622
      }
    },
    {
      "type": "Feature",
      "geometry": {
        "type": "Point",
        "coordinates": [-122.801279, 48.049814]
      },
      "properties": {
        "cartodb_id": 86,
        "iata": "0S9",
        "title": "Jefferson County International",
        "city": "Port Townsend",
        "state": "WA",
        "country": "USA",
        "latitude": 48.04981361,
        "longitude": -122.8012792
      }
    },
    {
      "type": "Feature",
      "geometry": {
        "type": "Point",
        "coordinates": [-106.045848, 38.539164]
      },
      "properties": {
        "cartodb_id": 87,
        "iata": "0V2",
        "title": "Harriet Alexander",
        "city": "Salida",
        "state": "CO",
        "country": "USA",
        "latitude": 38.53916389,
        "longitude": -106.0458483
      }
    },
    {
      "type": "Feature",
      "geometry": {
        "type": "Point",
        "coordinates": [-98.945651, 40.514913]
      },
      "properties": {
        "cartodb_id": 88,
        "iata": "0V3",
        "title": "Pioneer Village",
        "city": "Minden",
        "state": "NE",
        "country": "USA",
        "latitude": 40.5149125,
        "longitude": -98.94565083
      }
    },
    {
      "type": "Feature",
      "geometry": {
        "type": "Point",
        "coordinates": [-79.016389, 37.141722]
      },
      "properties": {
        "cartodb_id": 89,
        "iata": "0V4",
        "title": "Brookneal/Campbell County",
        "city": "Brookneal",
        "state": "VA",
        "country": "USA",
        "latitude": 37.14172222,
        "longitude": -79.01638889
      }
    },
    {
      "type": "Feature",
      "geometry": {
        "type": "Point",
        "coordinates": [-100.628194, 43.306948]
      },
      "properties": {
        "cartodb_id": 90,
        "iata": "0V6",
        "title": "Mission Sioux",
        "city": "Mission",
        "state": "SD",
        "country": "USA",
        "latitude": 43.30694778,
        "longitude": -100.6281936
      }
    },
    {
      "type": "Feature",
      "geometry": {
        "type": "Point",
        "coordinates": [-110.236798, 36.709721]
      },
      "properties": {
        "cartodb_id": 91,
        "iata": "0V7",
        "title": "Kayenta",
        "city": "Kayenta",
        "state": "AZ",
        "country": "USA",
        "latitude": 36.70972139,
        "longitude": -110.2367978
      }
    },
    {
      "type": "Feature",
      "geometry": {
        "type": "Point",
        "coordinates": [-88.375889, 42.402665]
      },
      "properties": {
        "cartodb_id": 92,
        "iata": "10C",
        "title": "Galt",
        "city": "Chicago/Greenwood/Wonderlake",
        "state": "IL",
        "country": "USA",
        "latitude": 42.40266472,
        "longitude": -88.37588917
      }
    },
    {
      "type": "Feature",
      "geometry": {
        "type": "Point",
        "coordinates": [-94.066918, 44.949963]
      },
      "properties": {
        "cartodb_id": 93,
        "iata": "10D",
        "title": "Winsted Municipal",
        "city": "Winsted",
        "state": "MN",
        "country": "USA",
        "latitude": 44.94996278,
        "longitude": -94.0669175
      }
    },
    {
      "type": "Feature",
      "geometry": {
        "type": "Point",
        "coordinates": [-81.954361, 40.537167]
      },
      "properties": {
        "cartodb_id": 94,
        "iata": "10G",
        "title": "Holmes County",
        "city": "Millersburg",
        "state": "OH",
        "country": "USA",
        "latitude": 40.53716667,
        "longitude": -81.95436111
      }
    },
    {
      "type": "Feature",
      "geometry": {
        "type": "Point",
        "coordinates": [-74.133756, 41.627871]
      },
      "properties": {
        "cartodb_id": 95,
        "iata": "10N",
        "title": "Wallkill",
        "city": "Wallkill",
        "state": "NY",
        "country": "USA",
        "latitude": 41.62787111,
        "longitude": -74.13375583
      }
    },
    {
      "type": "Feature",
      "geometry": {
        "type": "Point",
        "coordinates": [-116.187601, 41.953233]
      },
      "properties": {
        "cartodb_id": 96,
        "iata": "10U",
        "title": "Owyhee",
        "city": "Owyhee",
        "state": "NV",
        "country": "USA",
        "latitude": 41.95323306,
        "longitude": -116.1876014
      }
    },
    {
      "type": "Feature",
      "geometry": {
        "type": "Point",
        "coordinates": [-85.484914, 31.883299]
      },
      "properties": {
        "cartodb_id": 97,
        "iata": "11A",
        "title": "Clayton Municipal",
        "city": "Clayton",
        "state": "AL",
        "country": "USA",
        "latitude": 31.88329917,
        "longitude": -85.48491361
      }
    },
    {
      "type": "Feature",
      "geometry": {
        "type": "Point",
        "coordinates": [-79.44099, 41.225812]
      },
      "properties": {
        "cartodb_id": 98,
        "iata": "11D",
        "title": "Clarion Cty",
        "city": "Clarion",
        "state": "PA",
        "country": "USA",
        "latitude": 41.22581222,
        "longitude": -79.44098972
      }
    },
    {
      "type": "Feature",
      "geometry": {
        "type": "Point",
        "coordinates": [-88.052572, 42.048083]
      },
      "properties": {
        "cartodb_id": 99,
        "iata": "11IS",
        "title": "Schaumburg Heliport",
        "city": "Chicago/Schaumburg",
        "state": "IL",
        "country": "USA",
        "latitude": 42.04808278,
        "longitude": -88.05257194
      }
    },
    {
      "type": "Feature",
      "geometry": {
        "type": "Point",
        "coordinates": [-84.895257, 31.396986]
      },
      "properties": {
        "cartodb_id": 100,
        "iata": "11J",
        "title": "Early County",
        "city": "Blakely",
        "state": "GA",
        "country": "USA",
        "latitude": 31.39698611,
        "longitude": -84.89525694
      }
    },
    {
      "type": "Feature",
      "geometry": {
        "type": "Point",
        "coordinates": [-96.374278, 30.219]
      },
      "properties": {
        "cartodb_id": 101,
        "iata": "11R",
        "title": "Brenham Municipal",
        "city": "Brenham",
        "state": "TX",
        "country": "USA",
        "latitude": 30.219,
        "longitude": -96.37427778
      }
    },
    {
      "type": "Feature",
      "geometry": {
        "type": "Point",
        "coordinates": [-89.07829, 41.893001]
      },
      "properties": {
        "cartodb_id": 102,
        "iata": "12C",
        "title": "Rochelle Municipal",
        "city": "Rochelle",
        "state": "IL",
        "country": "USA",
        "latitude": 41.89300139,
        "longitude": -89.07829
      }
    },
    {
      "type": "Feature",
      "geometry": {
        "type": "Point",
        "coordinates": [-92.291667, 47.818333]
      },
      "properties": {
        "cartodb_id": 103,
        "iata": "12D",
        "title": "Tower Municipal",
        "city": "Tower",
        "state": "MN",
        "country": "USA",
        "latitude": 47.81833333,
        "longitude": -92.29166667
      }
    },
    {
      "type": "Feature",
      "geometry": {
        "type": "Point",
        "coordinates": [-87.067968, 31.051263]
      },
      "properties": {
        "cartodb_id": 104,
        "iata": "12J",
        "title": "Brewton Municipal",
        "city": "Brewton",
        "state": "AL",
        "country": "USA",
        "latitude": 31.05126306,
        "longitude": -87.06796833
      }
    },
    {
      "type": "Feature",
      "geometry": {
        "type": "Point",
        "coordinates": [-98.060111, 40.046361]
      },
      "properties": {
        "cartodb_id": 105,
        "iata": "12K",
        "title": "Superior Municipal",
        "city": "Superior",
        "state": "NE",
        "country": "USA",
        "latitude": 40.04636111,
        "longitude": -98.06011111
      }
    },
    {
      "type": "Feature",
      "geometry": {
        "type": "Point",
        "coordinates": [-93.912741, 44.437465]
      },
      "properties": {
        "cartodb_id": 106,
        "iata": "12Y",
        "title": "Le Sueur Municipal",
        "city": "Le Sueur",
        "state": "MN",
        "country": "USA",
        "latitude": 44.43746472,
        "longitude": -93.91274083
      }
    },
    {
      "type": "Feature",
      "geometry": {
        "type": "Point",
        "coordinates": [-85.264803, 43.452137]
      },
      "properties": {
        "cartodb_id": 107,
        "iata": "13C",
        "title": "Lakeview",
        "city": "Lakeview",
        "state": "MI",
        "country": "USA",
        "latitude": 43.45213722,
        "longitude": -85.26480333
      }
    },
    {
      "type": "Feature",
      "geometry": {
        "type": "Point",
        "coordinates": [-96.291698, 37.851582]
      },
      "properties": {
        "cartodb_id": 108,
        "iata": "13K",
        "title": "Eureka Municipal",
        "city": "Eureka",
        "state": "KS",
        "country": "USA",
        "latitude": 37.8515825,
        "longitude": -96.29169806
      }
    },
    {
      "type": "Feature",
      "geometry": {
        "type": "Point",
        "coordinates": [-74.780166, 40.966764]
      },
      "properties": {
        "cartodb_id": 109,
        "iata": "13N",
        "title": "Trinca",
        "city": "Andover",
        "state": "NJ",
        "country": "USA",
        "latitude": 40.96676444,
        "longitude": -74.78016556
      }
    },
    {
      "type": "Feature",
      "geometry": {
        "type": "Point",
        "coordinates": [-86.088836, 31.409889]
      },
      "properties": {
        "cartodb_id": 110,
        "iata": "14J",
        "title": "Carl Folsom",
        "city": "Elba",
        "state": "AL",
        "country": "USA",
        "latitude": 31.40988861,
        "longitude": -86.08883583
      }
    },
    {
      "type": "Feature",
      "geometry": {
        "type": "Point",
        "coordinates": [-90.830654, 33.182622]
      },
      "properties": {
        "cartodb_id": 111,
        "iata": "14M",
        "title": "Hollandale Municipal",
        "city": "Hollandale",
        "state": "MS",
        "country": "USA",
        "latitude": 33.18262167,
        "longitude": -90.83065444
      }
    },
    {
      "type": "Feature",
      "geometry": {
        "type": "Point",
        "coordinates": [-94.87391, 45.898576]
      },
      "properties": {
        "cartodb_id": 112,
        "iata": "14Y",
        "title": "Todd Field",
        "city": "Long Prairie",
        "state": "MN",
        "country": "USA",
        "latitude": 45.89857556,
        "longitude": -94.87391
      }
    },
    {
      "type": "Feature",
      "geometry": {
        "type": "Point",
        "coordinates": [-99.717931, 33.191556]
      },
      "properties": {
        "cartodb_id": 113,
        "iata": "15F",
        "title": "Haskell Municipal",
        "city": "Haskell",
        "state": "TX",
        "country": "USA",
        "latitude": 33.19155556,
        "longitude": -99.71793056
      }
    },
    {
      "type": "Feature",
      "geometry": {
        "type": "Point",
        "coordinates": [-83.453083, 31.137806]
      },
      "properties": {
        "cartodb_id": 114,
        "iata": "15J",
        "title": "Cook County",
        "city": "Adel",
        "state": "GA",
        "country": "USA",
        "latitude": 31.13780556,
        "longitude": -83.45308333
      }
    },
    {
      "type": "Feature",
      "geometry": {
        "type": "Point",
        "coordinates": [-88.165874, 34.772312]
      },
      "properties": {
        "cartodb_id": 115,
        "iata": "15M",
        "title": "Luka",
        "city": "Luka",
        "state": "MS",
        "country": "USA",
        "latitude": 34.7723125,
        "longitude": -88.16587444
      }
    },
    {
      "type": "Feature",
      "geometry": {
        "type": "Point",
        "coordinates": [-142.903737, 61.437061]
      },
      "properties": {
        "cartodb_id": 116,
        "iata": "15Z",
        "title": "McCarthy 2",
        "city": "McCarthy",
        "state": "AK",
        "country": "USA",
        "latitude": 61.43706083,
        "longitude": -142.9037372
      }
    },
    {
      "type": "Feature",
      "geometry": {
        "type": "Point",
        "coordinates": [-162.439116, 60.905828]
      },
      "properties": {
        "cartodb_id": 117,
        "iata": "16A",
        "title": "Nunapitchuk",
        "city": "Nunapitchuk",
        "state": "AK",
        "country": "USA",
        "latitude": 60.90582833,
        "longitude": -162.4391158
      }
    },
    {
      "type": "Feature",
      "geometry": {
        "type": "Point",
        "coordinates": [-83.2125, 41.094056]
      },
      "properties": {
        "cartodb_id": 118,
        "iata": "16G",
        "title": "Seneca County",
        "city": "Tiffin",
        "state": "OH",
        "country": "USA",
        "latitude": 41.09405556,
        "longitude": -83.2125
      }
    },
    {
      "type": "Feature",
      "geometry": {
        "type": "Point",
        "coordinates": [-84.419285, 31.743285]
      },
      "properties": {
        "cartodb_id": 119,
        "iata": "16J",
        "title": "Dawson Municipal",
        "city": "Dawson",
        "state": "GA",
        "country": "USA",
        "latitude": 31.74328472,
        "longitude": -84.419285
      }
    },
    {
      "type": "Feature",
      "geometry": {
        "type": "Point",
        "coordinates": [-123.309509, 42.998451]
      },
      "properties": {
        "cartodb_id": 120,
        "iata": "16S",
        "title": "Myrtle Creek Municipal",
        "city": "Myrtle Creek",
        "state": "OR",
        "country": "USA",
        "latitude": 42.99845056,
        "longitude": -123.3095092
      }
    },
    {
      "type": "Feature",
      "geometry": {
        "type": "Point",
        "coordinates": [-82.974694, 40.781417]
      },
      "properties": {
        "cartodb_id": 121,
        "iata": "17G",
        "title": "Port Bucyrus-Crawford County",
        "city": "Bucyrus",
        "state": "OH",
        "country": "USA",
        "latitude": 40.78141667,
        "longitude": -82.97469444
      }
    },
    {
      "type": "Feature",
      "geometry": {
        "type": "Point",
        "coordinates": [-84.877611, 31.006944]
      },
      "properties": {
        "cartodb_id": 122,
        "iata": "17J",
        "title": "Donalsonville Municipal",
        "city": "Donalsonville",
        "state": "GA",
        "country": "USA",
        "latitude": 31.00694444,
        "longitude": -84.87761111
      }
    },
    {
      "type": "Feature",
      "geometry": {
        "type": "Point",
        "coordinates": [-102.510436, 36.7743]
      },
      "properties": {
        "cartodb_id": 123,
        "iata": "17K",
        "title": "Boise City",
        "city": "Boise City",
        "state": "OK",
        "country": "USA",
        "latitude": 36.77430028,
        "longitude": -102.5104364
      }
    },
    {
      "type": "Feature",
      "geometry": {
        "type": "Point",
        "coordinates": [-89.802854, 31.861271]
      },
      "properties": {
        "cartodb_id": 124,
        "iata": "17M",
        "title": "Magee Municipal",
        "city": "Magee",
        "state": "MS",
        "country": "USA",
        "latitude": 31.86127139,
        "longitude": -89.80285361
      }
    },
    {
      "type": "Feature",
      "geometry": {
        "type": "Point",
        "coordinates": [-75.033003, 39.705476]
      },
      "properties": {
        "cartodb_id": 125,
        "iata": "17N",
        "title": "Cross Keys",
        "city": "Cross Keys",
        "state": "NJ",
        "country": "USA",
        "latitude": 39.70547583,
        "longitude": -75.03300306
      }
    },
    {
      "type": "Feature",
      "geometry": {
        "type": "Point",
        "coordinates": [-159.049974, 58.988966]
      },
      "properties": {
        "cartodb_id": 126,
        "iata": "17Z",
        "title": "Manokotak",
        "city": "Manokotak",
        "state": "AK",
        "country": "USA",
        "latitude": 58.98896583,
        "longitude": -159.0499739
      }
    },
    {
      "type": "Feature",
      "geometry": {
        "type": "Point",
        "coordinates": [-83.133483, 34.340105]
      },
      "properties": {
        "cartodb_id": 127,
        "iata": "18A",
        "title": "Franklin County",
        "city": "Canon",
        "state": "GA",
        "country": "USA",
        "latitude": 34.34010472,
        "longitude": -83.13348333
      }
    },
    {
      "type": "Feature",
      "geometry": {
        "type": "Point",
        "coordinates": [-84.391604, 36.695913]
      },
      "properties": {
        "cartodb_id": 128,
        "iata": "18I",
        "title": "McCreary County",
        "city": "Pine Knot",
        "state": "KY",
        "country": "USA",
        "latitude": 36.69591306,
        "longitude": -84.39160389
      }
    },
    {
      "type": "Feature",
      "geometry": {
        "type": "Point",
        "coordinates": [-83.560665, 34.174025]
      },
      "properties": {
        "cartodb_id": 129,
        "iata": "19A",
        "title": "Jackson County",
        "city": "Jefferson",
        "state": "GA",
        "country": "USA",
        "latitude": 34.17402472,
        "longitude": -83.56066528
      }
    },
    {
      "type": "Feature",
      "geometry": {
        "type": "Point",
        "coordinates": [-90.025557, 33.125461]
      },
      "properties": {
        "cartodb_id": 130,
        "iata": "19M",
        "title": "C A Moore",
        "city": "Lexington",
        "state": "MS",
        "country": "USA",
        "latitude": 33.12546111,
        "longitude": -90.02555694
      }
    },
    {
      "type": "Feature",
      "geometry": {
        "type": "Point",
        "coordinates": [-133.610084, 56.328804]
      },
      "properties": {
        "cartodb_id": 132,
        "iata": "19P",
        "title": "Port Protection SPB",
        "city": "Port Protection",
        "state": "AK",
        "country": "USA",
        "latitude": 56.32880417,
        "longitude": -133.6100844
      }
    },
    {
      "type": "Feature",
      "geometry": {
        "type": "Point",
        "coordinates": [-84.346311, 35.016191]
      },
      "properties": {
        "cartodb_id": 133,
        "iata": "1A3",
        "title": "Martin Campbell",
        "city": "Copperhill",
        "state": "TN",
        "country": "USA",
        "latitude": 35.01619111,
        "longitude": -84.34631083
      }
    },
    {
      "type": "Feature",
      "geometry": {
        "type": "Point",
        "coordinates": [-83.419044, 35.222595]
      },
      "properties": {
        "cartodb_id": 134,
        "iata": "1A5",
        "title": "Macon County",
        "city": "Franklin",
        "state": "NC",
        "country": "USA",
        "latitude": 35.222595,
        "longitude": -83.41904389
      }
    },
    {
      "type": "Feature",
      "geometry": {
        "type": "Point",
        "coordinates": [-83.737416, 36.610638]
      },
      "properties": {
        "cartodb_id": 135,
        "iata": "1A6",
        "title": "Middlesboro-Bell County",
        "city": "Middlesboro",
        "state": "KY",
        "country": "USA",
        "latitude": 36.6106375,
        "longitude": -83.73741611
      }
    },
    {
      "type": "Feature",
      "geometry": {
        "type": "Point",
        "coordinates": [-85.641643, 36.397281]
      },
      "properties": {
        "cartodb_id": 136,
        "iata": "1A7",
        "title": "Jackson County",
        "city": "Gainesboro",
        "state": "TN",
        "country": "USA",
        "latitude": 36.39728139,
        "longitude": -85.64164278
      }
    },
    {
      "type": "Feature",
      "geometry": {
        "type": "Point",
        "coordinates": [-86.510448, 32.438775]
      },
      "properties": {
        "cartodb_id": 137,
        "iata": "1A9",
        "title": "Autauga County",
        "city": "Prattville",
        "state": "AL",
        "country": "USA",
        "latitude": 32.438775,
        "longitude": -86.51044778
      }
    },
    {
      "type": "Feature",
      "geometry": {
        "type": "Point",
        "coordinates": [-69.239767, 45.008394]
      },
      "properties": {
        "cartodb_id": 138,
        "iata": "1B0",
        "title": "Dexter Regional",
        "city": "Dexter",
        "state": "ME",
        "country": "USA",
        "latitude": 45.00839444,
        "longitude": -69.23976722
      }
    },
    {
      "type": "Feature",
      "geometry": {
        "type": "Point",
        "coordinates": [-73.710319, 42.2913]
      },
      "properties": {
        "cartodb_id": 139,
        "iata": "1B1",
        "title": "Columbia Cty",
        "city": "Hudson",
        "state": "NY",
        "country": "USA",
        "latitude": 42.29130028,
        "longitude": -73.71031944
      }
    },
    {
      "type": "Feature",
      "geometry": {
        "type": "Point",
        "coordinates": [-73.274556, 43.615344]
      },
      "properties": {
        "cartodb_id": 140,
        "iata": "1B3",
        "title": "Fair Haven",
        "city": "Fair Haven",
        "state": "VT",
        "country": "USA",
        "latitude": 43.61534389,
        "longitude": -73.27455556
      }
    },
    {
      "type": "Feature",
      "geometry": {
        "type": "Point",
        "coordinates": [-71.196771, 42.000133]
      },
      "properties": {
        "cartodb_id": 141,
        "iata": "1B9",
        "title": "Mansfield Municipal",
        "city": "Mansfield",
        "state": "MA",
        "country": "USA",
        "latitude": 42.00013306,
        "longitude": -71.19677139
      }
    },
    {
      "type": "Feature",
      "geometry": {
        "type": "Point",
        "coordinates": [-88.129231, 41.695974]
      },
      "properties": {
        "cartodb_id": 142,
        "iata": "1C5",
        "title": "Clow",
        "city": "Chicago/Plainfield",
        "state": "IL",
        "country": "USA",
        "latitude": 41.69597444,
        "longitude": -88.12923056
      }
    },
    {
      "type": "Feature",
      "geometry": {
        "type": "Point",
        "coordinates": [-96.565966, 45.230538]
      },
      "properties": {
        "cartodb_id": 143,
        "iata": "1D1",
        "title": "Milbank Municipal",
        "city": "Milbank",
        "state": "SD",
        "country": "USA",
        "latitude": 45.23053806,
        "longitude": -96.56596556
      }
    },
    {
      "type": "Feature",
      "geometry": {
        "type": "Point",
        "coordinates": [-83.458268, 42.350037]
      },
      "properties": {
        "cartodb_id": 144,
        "iata": "1D2",
        "title": "Canton -Plymouth -  Mettetal",
        "city": "Plymouth",
        "state": "MI",
        "country": "USA",
        "latitude": 42.35003667,
        "longitude": -83.45826833
      }
    },
    {
      "type": "Feature",
      "geometry": {
        "type": "Point",
        "coordinates": [-98.82953, 43.403328]
      },
      "properties": {
        "cartodb_id": 145,
        "iata": "1D3",
        "title": "Platte Municipal",
        "city": "Platte",
        "state": "SD",
        "country": "USA",
        "latitude": 43.40332833,
        "longitude": -98.82952972
      }
    },
    {
      "type": "Feature",
      "geometry": {
        "type": "Point",
        "coordinates": [-94.714713, 44.731073]
      },
      "properties": {
        "cartodb_id": 146,
        "iata": "1D6",
        "title": "Hector Municipal",
        "city": "Hector",
        "state": "MN",
        "country": "USA",
        "latitude": 44.73107278,
        "longitude": -94.71471333
      }
    },
    {
      "type": "Feature",
      "geometry": {
        "type": "Point",
        "coordinates": [-97.513699, 45.293291]
      },
      "properties": {
        "cartodb_id": 147,
        "iata": "1D7",
        "title": "Webster Municipal",
        "city": "Webster",
        "state": "SD",
        "country": "USA",
        "latitude": 45.29329111,
        "longitude": -97.51369889
      }
    },
    {
      "type": "Feature",
      "geometry": {
        "type": "Point",
        "coordinates": [-98.52954, 44.862476]
      },
      "properties": {
        "cartodb_id": 148,
        "iata": "1D8",
        "title": "Redfield Municipal",
        "city": "Redfield",
        "state": "SD",
        "country": "USA",
        "latitude": 44.86247611,
        "longitude": -98.52953972
      }
    },
    {
      "type": "Feature",
      "geometry": {
        "type": "Point",
        "coordinates": [-97.122652, 34.146989]
      },
      "properties": {
        "cartodb_id": 149,
        "iata": "1F0",
        "title": "Downtown Ardmore",
        "city": "Ardmore",
        "state": "OK",
        "country": "USA",
        "latitude": 34.14698917,
        "longitude": -97.12265194
      }
    },
    {
      "type": "Feature",
      "geometry": {
        "type": "Point",
        "coordinates": [-97.106679, 34.075097]
      },
      "properties": {
        "cartodb_id": 150,
        "iata": "1F1",
        "title": "Lake Murray State Park",
        "city": "Overbrook",
        "state": "OK",
        "country": "USA",
        "latitude": 34.07509694,
        "longitude": -97.10667917
      }
    },
    {
      "type": "Feature",
      "geometry": {
        "type": "Point",
        "coordinates": [-96.812032, 34.140402]
      },
      "properties": {
        "cartodb_id": 151,
        "iata": "1F4",
        "title": "Madill Municipal",
        "city": "Madill",
        "state": "OK",
        "country": "USA",
        "latitude": 34.14040194,
        "longitude": -96.81203222
      }
    },
    {
      "type": "Feature",
      "geometry": {
        "type": "Point",
        "coordinates": [-97.828389, 33.175333]
      },
      "properties": {
        "cartodb_id": 152,
        "iata": "1F9",
        "title": "Bridgeport Municipal",
        "city": "Bridgeport",
        "state": "TX",
        "country": "USA",
        "latitude": 33.17533333,
        "longitude": -97.82838889
      }
    },
    {
      "type": "Feature",
      "geometry": {
        "type": "Point",
        "coordinates": [-83.630139, 41.391]
      },
      "properties": {
        "cartodb_id": 153,
        "iata": "1G0",
        "title": "Wood County",
        "city": "Bowling Green",
        "state": "OH",
        "country": "USA",
        "latitude": 41.391,
        "longitude": -83.63013889
      }
    },
    {
      "type": "Feature",
      "geometry": {
        "type": "Point",
        "coordinates": [-81.416583, 41.151862]
      },
      "properties": {
        "cartodb_id": 154,
        "iata": "1G3",
        "title": "Kent State University",
        "city": "Kent",
        "state": "OH",
        "country": "USA",
        "latitude": 41.15186167,
        "longitude": -81.41658306
      }
    },
    {
      "type": "Feature",
      "geometry": {
        "type": "Point",
        "coordinates": [-113.816616, 35.99221]
      },
      "properties": {
        "cartodb_id": 155,
        "iata": "1G4",
        "title": "Grand Canyon West",
        "city": "Peach Springs",
        "state": "AZ",
        "country": "USA",
        "latitude": 35.99221,
        "longitude": -113.8166164
      }
    },
    {
      "type": "Feature",
      "geometry": {
        "type": "Point",
        "coordinates": [-81.764917, 41.131444]
      },
      "properties": {
        "cartodb_id": 156,
        "iata": "1G5",
        "title": "Freedom",
        "city": "Medina",
        "state": "OH",
        "country": "USA",
        "latitude": 41.13144444,
        "longitude": -81.76491667
      }
    },
    {
      "type": "Feature",
      "geometry": {
        "type": "Point",
        "coordinates": [-76.127778, 43.181667]
      },
      "properties": {
        "cartodb_id": 157,
        "iata": "1G6",
        "title": "Michael",
        "city": "Cicero",
        "state": "NY",
        "country": "USA",
        "latitude": 43.18166667,
        "longitude": -76.12777778
      }
    },
    {
      "type": "Feature",
      "geometry": {
        "type": "Point",
        "coordinates": [-90.508304, 38.72752]
      },
      "properties": {
        "cartodb_id": 158,
        "iata": "1H0",
        "title": "Creve Coeur",
        "city": "St Louis",
        "state": "MO",
        "country": "USA",
        "latitude": 38.72752,
        "longitude": -90.50830417
      }
    },
    {
      "type": "Feature",
      "geometry": {
        "type": "Point",
        "coordinates": [-88.53352, 39.070451]
      },
      "properties": {
        "cartodb_id": 159,
        "iata": "1H2",
        "title": "Effingham County Memorial",
        "city": "Effingham",
        "state": "IL",
        "country": "USA",
        "latitude": 39.07045083,
        "longitude": -88.53351972
      }
    },
    {
      "type": "Feature",
      "geometry": {
        "type": "Point",
        "coordinates": [-91.815317, 38.471494]
      },
      "properties": {
        "cartodb_id": 160,
        "iata": "1H3",
        "title": "Linn State Tech. College",
        "city": "Linn",
        "state": "MO",
        "country": "USA",
        "latitude": 38.47149444,
        "longitude": -91.81531667
      }
    },
    {
      "type": "Feature",
      "geometry": {
        "type": "Point",
        "coordinates": [-88.004062, 39.302509]
      },
      "properties": {
        "cartodb_id": 161,
        "iata": "1H8",
        "title": "Casey Municipal",
        "city": "Casey",
        "state": "IL",
        "country": "USA",
        "latitude": 39.30250917,
        "longitude": -88.00406194
      }
    },
    {
      "type": "Feature",
      "geometry": {
        "type": "Point",
        "coordinates": [-74.065968, 42.36425]
      },
      "properties": {
        "cartodb_id": 162,
        "iata": "1I5",
        "title": "Freehold",
        "city": "Freehold",
        "state": "NY",
        "country": "USA",
        "latitude": 42.36425,
        "longitude": -74.06596806
      }
    },
    {
      "type": "Feature",
      "geometry": {
        "type": "Point",
        "coordinates": [-86.681672, 40.542814]
      },
      "properties": {
        "cartodb_id": 163,
        "iata": "1I9",
        "title": "Delphi Municipal",
        "city": "Delphi",
        "state": "IN",
        "country": "USA",
        "latitude": 40.54281417,
        "longitude": -86.68167194
      }
    },
    {
      "type": "Feature",
      "geometry": {
        "type": "Point",
        "coordinates": [-85.601389, 30.845778]
      },
      "properties": {
        "cartodb_id": 164,
        "iata": "1J0",
        "title": "Tri-County",
        "city": "Bonifay",
        "state": "FL",
        "country": "USA",
        "latitude": 30.84577778,
        "longitude": -85.60138889
      }
    },
    {
      "type": "Feature",
      "geometry": {
        "type": "Point",
        "coordinates": [-97.58642, 34.850073]
      },
      "properties": {
        "cartodb_id": 165,
        "iata": "1K2",
        "title": "Lindsay Municipal",
        "city": "Lindsay",
        "state": "OK",
        "country": "USA",
        "latitude": 34.85007333,
        "longitude": -97.58642028
      }
    },
    {
      "type": "Feature",
      "geometry": {
        "type": "Point",
        "coordinates": [-97.470394, 35.155068]
      },
      "properties": {
        "cartodb_id": 166,
        "iata": "1K4",
        "title": "David J. Perry",
        "city": "Goldsby",
        "state": "OK",
        "country": "USA",
        "latitude": 35.1550675,
        "longitude": -97.47039389
      }
    },
    {
      "type": "Feature",
      "geometry": {
        "type": "Point",
        "coordinates": [-98.852313, 36.5667]
      },
      "properties": {
        "cartodb_id": 167,
        "iata": "1K5",
        "title": "Waynoka Municipal",
        "city": "Waynoka",
        "state": "OK",
        "country": "USA",
        "latitude": 36.56670028,
        "longitude": -98.85231333
      }
    },
    {
      "type": "Feature",
      "geometry": {
        "type": "Point",
        "coordinates": [-100.992112, 37.454191]
      },
      "properties": {
        "cartodb_id": 168,
        "iata": "1K9",
        "title": "Satanta Municipal",
        "city": "Satanta",
        "state": "KS",
        "country": "USA",
        "latitude": 37.45419111,
        "longitude": -100.9921119
      }
    },
    {
      "type": "Feature",
      "geometry": {
        "type": "Point",
        "coordinates": [-90.582665, 30.087208]
      },
      "properties": {
        "cartodb_id": 169,
        "iata": "1L0",
        "title": "St. John the Baptist Parish",
        "city": "Reserve",
        "state": "LA",
        "country": "USA",
        "latitude": 30.08720833,
        "longitude": -90.58266528
      }
    },
    {
      "type": "Feature",
      "geometry": {
        "type": "Point",
        "coordinates": [-114.421657, 37.787464]
      },
      "properties": {
        "cartodb_id": 170,
        "iata": "1L1",
        "title": "Lincoln Co",
        "city": "Panaca",
        "state": "NV",
        "country": "USA",
        "latitude": 37.78746444,
        "longitude": -114.4216567
      }
    },
    {
      "type": "Feature",
      "geometry": {
        "type": "Point",
        "coordinates": [-111.570165, 37.745326]
      },
      "properties": {
        "cartodb_id": 171,
        "iata": "1L7",
        "title": "Escalante Municipal",
        "city": "Escalante",
        "state": "UT",
        "country": "USA",
        "latitude": 37.74532639,
        "longitude": -111.5701653
      }
    },
    {
      "type": "Feature",
      "geometry": {
        "type": "Point",
        "coordinates": [-112.816055, 37.859697]
      },
      "properties": {
        "cartodb_id": 172,
        "iata": "1L9",
        "title": "Parowan",
        "city": "Parowan",
        "state": "UT",
        "country": "USA",
        "latitude": 37.85969694,
        "longitude": -112.816055
      }
    },
    {
      "type": "Feature",
      "geometry": {
        "type": "Point",
        "coordinates": [-92.257928, 34.833981]
      },
      "properties": {
        "cartodb_id": 173,
        "iata": "1M1",
        "title": "North Little Rock Municipal",
        "city": "No Lit Rock",
        "state": "AR",
        "country": "USA",
        "latitude": 34.83398056,
        "longitude": -92.25792778
      }
    },
    {
      "type": "Feature",
      "geometry": {
        "type": "Point",
        "coordinates": [-90.515285, 33.145181]
      },
      "properties": {
        "cartodb_id": 174,
        "iata": "1M2",
        "title": "Belzoni Municipal",
        "city": "Belzoni",
        "state": "MS",
        "country": "USA",
        "latitude": 33.14518056,
        "longitude": -90.51528472
      }
    },
    {
      "type": "Feature",
      "geometry": {
        "type": "Point",
        "coordinates": [-87.600441, 34.280348]
      },
      "properties": {
        "cartodb_id": 175,
        "iata": "1M4",
        "title": "Posey",
        "city": "Haleyville",
        "state": "AL",
        "country": "USA",
        "latitude": 34.28034806,
        "longitude": -87.60044139
      }
    },
    {
      "type": "Feature",
      "geometry": {
        "type": "Point",
        "coordinates": [-86.47691, 36.592875]
      },
      "properties": {
        "cartodb_id": 176,
        "iata": "1M5",
        "title": "Portland Municipal",
        "city": "Portland",
        "state": "TN",
        "country": "USA",
        "latitude": 36.59287528,
        "longitude": -86.47691028
      }
    },
    {
      "type": "Feature",
      "geometry": {
        "type": "Point",
        "coordinates": [-88.915616, 36.525894]
      },
      "properties": {
        "cartodb_id": 177,
        "iata": "1M7",
        "title": "Fulton",
        "city": "Fulton",
        "state": "KY",
        "country": "USA",
        "latitude": 36.52589417,
        "longitude": -88.91561611
      }
    },
    {
      "type": "Feature",
      "geometry": {
        "type": "Point",
        "coordinates": [-92.311245, 37.120719]
      },
      "properties": {
        "cartodb_id": 178,
        "iata": "1MO",
        "title": "Mountain Grove Memorial",
        "city": "Mountain Grove",
        "state": "MO",
        "country": "USA",
        "latitude": 37.12071889,
        "longitude": -92.311245
      }
    },
    {
      "type": "Feature",
      "geometry": {
        "type": "Point",
        "coordinates": [-72.748711, 40.827876]
      },
      "properties": {
        "cartodb_id": 179,
        "iata": "1N2",
        "title": "Spadaro",
        "city": "East Moriches",
        "state": "NY",
        "country": "USA",
        "latitude": 40.82787639,
        "longitude": -72.74871083
      }
    },
    {
      "type": "Feature",
      "geometry": {
        "type": "Point",
        "coordinates": [-74.794765, 39.21915]
      },
      "properties": {
        "cartodb_id": 180,
        "iata": "1N4",
        "title": "Woodbine Muni",
        "city": "Woodbine",
        "state": "NJ",
        "country": "USA",
        "latitude": 39.21915,
        "longitude": -74.794765
      }
    },
    {
      "type": "Feature",
      "geometry": {
        "type": "Point",
        "coordinates": [-74.997476, 40.971146]
      },
      "properties": {
        "cartodb_id": 181,
        "iata": "1N7",
        "title": "Blairstown",
        "city": "Blairstown",
        "state": "NJ",
        "country": "USA",
        "latitude": 40.97114556,
        "longitude": -74.99747556
      }
    },
    {
      "type": "Feature",
      "geometry": {
        "type": "Point",
        "coordinates": [-75.488306, 40.570278]
      },
      "properties": {
        "cartodb_id": 182,
        "iata": "1N9",
        "title": "Allentown Queen City Muni",
        "city": "Allentown",
        "state": "PA",
        "country": "USA",
        "latitude": 40.57027778,
        "longitude": -75.48830556
      }
    },
    {
      "type": "Feature",
      "geometry": {
        "type": "Point",
        "coordinates": [-97.005643, 46.648578]
      },
      "properties": {
        "cartodb_id": 183,
        "iata": "1ND3",
        "title": "Hamry",
        "city": "Kindred",
        "state": "ND",
        "country": "USA",
        "latitude": 46.6485775,
        "longitude": -97.00564306
      }
    },
    {
      "type": "Feature",
      "geometry": {
        "type": "Point",
        "coordinates": [-98.742009, 34.237589]
      },
      "properties": {
        "cartodb_id": 184,
        "iata": "1O1",
        "title": "Grandfield Municipal",
        "city": "Grandfield",
        "state": "OK",
        "country": "USA",
        "latitude": 34.23758944,
        "longitude": -98.74200917
      }
    },
    {
      "type": "Feature",
      "geometry": {
        "type": "Point",
        "coordinates": [-122.899717, 38.990175]
      },
      "properties": {
        "cartodb_id": 185,
        "iata": "1O2",
        "title": "Lampson",
        "city": "Lakeport",
        "state": "CA",
        "country": "USA",
        "latitude": 38.99017472,
        "longitude": -122.8997175
      }
    },
    {
      "type": "Feature",
      "geometry": {
        "type": "Point",
        "coordinates": [-121.268417, 38.202417]
      },
      "properties": {
        "cartodb_id": 186,
        "iata": "1O3",
        "title": "Lodi",
        "city": "Lodi",
        "state": "CA",
        "country": "USA",
        "latitude": 38.20241667,
        "longitude": -121.2684167
      }
    },
    {
      "type": "Feature",
      "geometry": {
        "type": "Point",
        "coordinates": [-98.730638, 35.733382]
      },
      "properties": {
        "cartodb_id": 187,
        "iata": "1O4",
        "title": "Thomas Municipal",
        "city": "Thomas",
        "state": "OK",
        "country": "USA",
        "latitude": 35.73338222,
        "longitude": -98.73063833
      }
    },
    {
      "type": "Feature",
      "geometry": {
        "type": "Point",
        "coordinates": [-122.271953, 41.263209]
      },
      "properties": {
        "cartodb_id": 188,
        "iata": "1O6",
        "title": "Dunsmuir Municipal-Mott",
        "city": "Dunsmuir",
        "state": "CA",
        "country": "USA",
        "latitude": 41.26320889,
        "longitude": -122.2719528
      }
    },
    {
      "type": "Feature",
      "geometry": {
        "type": "Point",
        "coordinates": [-92.158467, 31.671005]
      },
      "properties": {
        "cartodb_id": 189,
        "iata": "1R1",
        "title": "Jena",
        "city": "Jena",
        "state": "LA",
        "country": "USA",
        "latitude": 31.671005,
        "longitude": -92.15846722
      }
    },
    {
      "type": "Feature",
      "geometry": {
        "type": "Point",
        "coordinates": [-90.409316, 31.605847]
      },
      "properties": {
        "cartodb_id": 190,
        "iata": "1R7",
        "title": "Brookhaven-Lincoln County",
        "city": "Brookhaven",
        "state": "MS",
        "country": "USA",
        "latitude": 31.6058475,
        "longitude": -90.40931583
      }
    },
    {
      "type": "Feature",
      "geometry": {
        "type": "Point",
        "coordinates": [-87.817382, 30.870463]
      },
      "properties": {
        "cartodb_id": 191,
        "iata": "1R8",
        "title": "Bay Minette Municipal",
        "city": "Bay Minette",
        "state": "AL",
        "country": "USA",
        "latitude": 30.87046278,
        "longitude": -87.81738167
      }
    },
    {
      "type": "Feature",
      "geometry": {
        "type": "Point",
        "coordinates": [-122.287194, 47.103917]
      },
      "properties": {
        "cartodb_id": 192,
        "iata": "1S0",
        "title": "Pierce County",
        "city": "Puyallup",
        "state": "WA",
        "country": "USA",
        "latitude": 47.10391667,
        "longitude": -122.2871944
      }
    },
    {
      "type": "Feature",
      "geometry": {
        "type": "Point",
        "coordinates": [-106.623921, 46.271106]
      },
      "properties": {
        "cartodb_id": 193,
        "iata": "1S3",
        "title": "Tillitt",
        "city": "Forsyth",
        "state": "MT",
        "country": "USA",
        "latitude": 46.27110639,
        "longitude": -106.6239206
      }
    },
    {
      "type": "Feature",
      "geometry": {
        "type": "Point",
        "coordinates": [-119.970596, 46.327631]
      },
      "properties": {
        "cartodb_id": 194,
        "iata": "1S5",
        "title": "Sunnyside Municipal",
        "city": "Sunnyside",
        "state": "WA",
        "country": "USA",
        "latitude": 46.32763139,
        "longitude": -119.9705964
      }
    },
    {
      "type": "Feature",
      "geometry": {
        "type": "Point",
        "coordinates": [-116.909364, 48.190186]
      },
      "properties": {
        "cartodb_id": 195,
        "iata": "1S6",
        "title": "Priest River Muni",
        "city": "Priest River",
        "state": "ID",
        "country": "USA",
        "latitude": 48.19018611,
        "longitude": -116.9093644
      }
    },
    {
      "type": "Feature",
      "geometry": {
        "type": "Point",
        "coordinates": [-111.33826, 42.24715]
      },
      "properties": {
        "cartodb_id": 196,
        "iata": "1U7",
        "title": "Bear Lake County",
        "city": "Paris",
        "state": "ID",
        "country": "USA",
        "latitude": 42.24714972,
        "longitude": -111.33826
      }
    },
    {
      "type": "Feature",
      "geometry": {
        "type": "Point",
        "coordinates": [-107.651444, 36.808338]
      },
      "properties": {
        "cartodb_id": 197,
        "iata": "1V0",
        "title": "Navajo State Park",
        "city": "Navajo Dam",
        "state": "NM",
        "country": "USA",
        "latitude": 36.80833833,
        "longitude": -107.6514444
      }
    },
    {
      "type": "Feature",
      "geometry": {
        "type": "Point",
        "coordinates": [-101.769344, 42.009429]
      },
      "properties": {
        "cartodb_id": 198,
        "iata": "1V2",
        "title": "Grant County",
        "city": "Hyannis",
        "state": "NE",
        "country": "USA",
        "latitude": 42.00942944,
        "longitude": -101.7693439
      }
    }
  ]
}
